site_id,site_name,region,lat,lon,steel_suppliers,insulation_suppliers,tax_benefits_list,insurance_benefit_percent,energy_tariff_rub_kwh,avg_salary_rub,ecology_class,gas_available,free_power_kva,distance_to_substation_km,connection_cost_rub_kva,kindergarten_places_per_100,quality_index,has_college,rent_1room_rub,arch_styles,traditional_materials,color_profile,market_distance_km,railway_available,federal_road_distance_km,industrial_park_available,construction_cost_index,labour_cost_index,population_thousands,population_density_per_km2,urban_population_percent,grp_per_capita_rub,unemployment_rate_percent,investment_capital_million_rub,industrial_production_index_percent,gasification_percent,road_density_km_per_1000km2,colleges_count,medical_institutions_per_100k,retail_turnover_per_capita_rub
SVE_001,ОЭЗ "Титановая долина" (Верхняя Салда),Свердловская область,58.0505,60.5215,"ПАО 'Северсталь' (Череповец) – 320 км; ПАО 'НЛМК' (Липецк) – 450 км","ООО 'ППУ Технологии' (Екатеринбург) – 120 км; ООО 'Базальт' (Челябинск) – 200 км","освобождение от налога на имущество на 10 лет; пониженная ставка налога на прибыль 13,5% вместо 20% на 5 лет",10.0,3.0,68000,2,Да,2500,1.5,3800,78,245,Да,18000,"советский модернизм, промышленный","металл, бетон, стекло","стальной, серый, белый",120,Да,4,Да,1.0,1.0,4308,23.3,85.5,720000,2.1,456000,104.2,78.4,210.5,72,34.2,520000
SVE_002,Индустриальный парк "Богданович",Свердловская область,56.7814,62.0486,"ПАО 'Северсталь' – 380 км; ПАО 'НЛМК' – 510 км","ООО 'Базальт' (Челябинск) – 85 км","пониженная ставка налога на прибыль 15,5% на 3 года; освобождение от налога на имущество на 5 лет",8.5,3.1,59000,2,Да,1800,2.5,4100,72,215,Да,14500,"уральский конструктивизм","кирпич, металл","серый, красный, графитовый",180,Да,6,Да,1.0,1.0,4308,23.3,85.5,720000,2.1,456000,104.2,78.4,210.5,72,34.2,520000
CHE_001,ОЭЗ "Северный" (Челябинск),Челябинская область,55.2523,61.3527,"ПАО 'ММК' (Магнитогорск) – 45 км; ПАО 'Северсталь' – 350 км","ООО 'ППУ Технологии' (Екатеринбург) – 75 км","освобождение от налога на имущество на 8 лет; снижение налога на прибыль до 13,5%",10.0,3.2,67000,3,Да,2200,2.0,3900,76,228,Да,17500,"советский конструктивизм, ампир","металл, кирпич","стальной, серый, красный",140,Да,5,Да,1.0,1.0,3435,38.2,82.7,580000,2.6,312000,102.8,75.1,251.5,58,33.7,430000
CHE_002,Индустриальный парк "Магнитогорск",Челябинская область,53.4525,59.0483,"ПАО 'ММК' (Магнитогорск) – 5 км; ПАО 'Северсталь' – 420 км","ООО 'Базальт' (Челябинск) – 180 км","пониженная ставка налога на прибыль 15% на 3 года",9.0,2.9,64000,4,Да,2100,1.8,4000,70,200,Да,13500,"сталинский неоклассицизм","металл, кирпич","красный, серый, золотой",220,Да,3,Да,1.0,1.0,3435,38.2,82.7,580000,2.6,312000,102.8,75.1,251.5,58,33.7,430000
TYU_001,Технопарк "Западно-Сибирский" (Тюмень),Тюменская область,57.1512,65.5523,"ПАО 'Северсталь' – 680 км; ПАО 'НЛМК' – 850 км","ООО 'Стирол' (Тобольск) – 120 км","освобождение от налога на имущество на 10 лет; снижение налога на прибыль до 12% для ИТ-кластера",10.0,4.1,85000,1,Да,1600,3.0,4500,82,238,Да,24000,"современный, сибирский","стекло, металл, кирпич","белый, синий, охристый",180,Да,7,Да,1.0,1.0,3860,2.6,79.2,1250000,2.4,718000,105.6,88.2,85.7,49,32.1,710000
PER_001,ОЭЗ "Пермь" (промплощадка Осенцы),Пермский край,58.0213,56.2547,"ПАО 'Северсталь' – 420 км; ПАО 'НЛМК' – 580 км","ООО 'ППУ Технологии' (Пермь) – 40 км","освобождение от налога на имущество на 10 лет; пониженный налог на прибыль 13,5%",9.5,4.1,71000,2,Да,1900,2.2,4200,75,225,Да,19500,"уральский конструктивизм","кирпич, металл, бетон","красный, серый, белый",135,Да,5,Да,1.0,1.0,2526,17.5,76.2,620000,3.1,287000,103.5,73.5,275.2,42,35.5,495000
BASH_001,ОЭЗ "Алга" (Стерлитамак),Республика Башкортостан,53.6523,55.9318,"ПАО 'Северсталь' – 500 км; ПАО 'ММК' – 280 км","ООО 'БашППУ' (Стерлитамак) – 15 км","освобождение от налога на имущество на 5 лет; пониженный налог на прибыль 15%",10.0,3.7,65000,3,Да,2000,2.0,3850,73,220,Да,15500,"советский конструктивизм","кирпич, бетон, металл","кирпичный, серый, стальной",110,Да,4,Да,1.0,1.0,4064,28.8,62.5,480000,4.2,295000,101.2,78.1,210.8,52,34.5,410000
TAT_001,ОЭЗ "Алабуга",Республика Татарстан,55.7582,52.0581,"ПАО 'Северсталь' – 480 км; ПАО 'НЛМК' – 620 км","ООО 'ППУ-Алабуга' (ОЭЗ) – 5 км","освобождение от налога на имущество на 10 лет; 0% налог на прибыль первые 5 лет, затем 13,5%",12.0,3.5,75000,2,Да,2800,1.2,3500,80,250,Да,22000,"современный промышленный","металл, стекло, бетон","белый, синий, серебристый",90,Да,3,Да,1.05,1.0,3893,57.4,76.8,890000,2.8,712000,106.2,79.3,335.2,68,32.8,580000
LIP_001,ОЭЗ "Липецк",Липецкая область,52.6232,39.5711,"ПАО 'НЛМК' (Липецк) – 10 км; ПАО 'Северсталь' – 420 км","ООО 'ЛипецкППУ' – 25 км","освобождение от налога на имущество на 8 лет; пониженная ставка налога на прибыль 13,5%",11.0,3.8,68000,2,Да,2300,2.5,3700,77,230,Да,18500,"советский модернизм","кирпич, металл","серый, красный, белый",160,Да,6,Да,1.0,1.0,1136,46.9,65.3,510000,3.4,168000,102.9,74.5,344.5,26,36.1,460000
KLU_001,ОЭЗ "Калуга",Калужская область,54.5312,36.2711,"ПАО 'Северсталь' – 450 км; ПАО 'НЛМК' – 320 км","ООО 'КалугаППУ' – 30 км","освобождение от налога на имущество на 10 лет; пониженный налог на прибыль 13,5%",12.0,4.2,72000,1,Да,2400,1.8,3600,79,240,Да,21000,"современный","стекло, металл, панели","белый, серый, синий",130,Да,4,Да,1.1,1.0,1004,28.7,76.1,590000,3.1,152000,105.6,78.2,319.2,24,36.0,490000
MOS_001,ОЭЗ "Дубна",Московская область,56.7332,37.1702,"ПАО 'Северсталь' – 380 км; ПАО 'НЛМК' – 510 км","ООО 'ДубнаППУ' – 20 км","освобождение от налога на имущество на 10 лет; страховые взносы 14% вместо 30%",10.0,4.5,95000,1,Да,2000,2.0,4200,85,260,Да,28000,"научно-технический","стекло, бетон, кирпич","белый, синий, серый",45,Да,8,Да,1.35,1.0,8560,166.4,82.1,950000,2.1,2500000,107.1,82.2,410.2,132,32.5,720000
SPB_001,ОЭЗ "Новоорловская",Санкт-Петербург,60.0536,30.2467,"ПАО 'Северсталь' – 520 км; ПАО 'НЛМК' – 650 км","ООО 'ППУ-СПб' – 40 км","освобождение от налога на имущество на 10 лет; пониженный налог на прибыль 13,5%",11.0,4.3,88000,1,Да,1800,3.5,4100,83,255,Да,26000,"современный","стекло, металл","серебристый, белый, синий",35,Да,5,Да,1.35,1.0,5600,397.2,100.0,1200000,1.9,892000,106.5,85.1,432.5,92,34.8,850000
NVS_001,Технопарк "Новосибирск-Академгородок",Новосибирская область,54.8580,83.1100,"ПАО 'Северсталь' – 780 км; ПАО 'НЛМК' – 920 км","ООО 'Сибирский ППУ' (Новосибирск) – 45 км","пониженная ставка налога на прибыль 15,5% на 3 года",9.0,3.9,78000,1,Да,1700,2.8,4300,81,235,Да,23000,"современный научный","стекло, бетон","белый, серый, голубой",80,Да,7,Да,0.9,1.0,2793,15.5,79.2,630000,3.8,385000,104.3,74.8,215.5,58,33.5,510000
TOM_001,ОЭЗ "Томск",Томская область,56.4823,84.9712,"ПАО 'Северсталь' – 850 км; ПАО 'НЛМК' – 980 км","ООО 'ТомскППУ' – 30 км","освобождение от налога на имущество на 8 лет",10.0,4.0,76000,1,Да,1600,3.0,4400,78,228,Да,20500,"академический","кирпич, стекло","охристый, белый, серый",95,Да,9,Да,0.9,1.0,1069,3.2,74.5,590000,3.9,175000,102.6,72.5,185.2,28,34.2,470000
TAT_002,Индустриальный парк "Камские Поляны",Республика Татарстан,55.5512,51.8523,"ПАО 'Северсталь' – 500 км; ПАО 'НЛМК' – 640 км","ООО 'ППУ-Челны' – 60 км","пониженная ставка налога на прибыль 15,5%",8.0,3.6,69000,2,Да,2100,2.5,3950,74,210,Да,16500,"промышленный","металл, кирпич","серый, красный, белый",150,Да,6,Да,1.05,1.0,3893,57.4,76.8,890000,2.8,712000,106.2,79.3,335.2,68,32.8,580000
SVE_003,Индустриальный парк "Уктус" (Екатеринбург),Свердловская область,56.7811,60.6523,"ПАО 'Северсталь' – 370 км; ПАО 'НЛМК' – 500 км","ООО 'ППУ Технологии' (Екатеринбург) – 10 км","пониженная ставка налога на прибыль 15,5% на 3 года",8.0,3.2,70000,2,Да,1700,2.8,4050,75,222,Да,16500,"уральский конструктивизм","кирпич, металл","стальной, серый, терракотовый",65,Да,4,Да,1.0,1.0,4308,23.3,85.5,720000,2.1,456000,104.2,78.4,210.5,72,34.2,520000
CHE_003,Индустриальный парк "Сосновский",Челябинская область,55.0523,61.3523,"ПАО 'ММК' – 105 км; ПАО 'Северсталь' – 380 км","ООО 'Базальт' – 80 км","снижение налога на прибыль до 15,5%",7.5,3.3,62000,3,Да,1500,3.5,4150,71,205,Да,15200,"советский промышленный","кирпич, бетон","серый, кирпичный, белый",170,Да,8,Да,0.95,1.0,3435,38.2,82.7,580000,2.6,312000,102.8,75.1,251.5,58,33.7,430000
PER_002,Индустриальный парк "Краснокамск",Пермский край,58.0823,55.7523,"ПАО 'Северсталь' – 440 км; ПАО 'НЛМК' – 600 км","ООО 'ППУ Технологии' (Пермь) – 60 км","пониженный налог на прибыль 15,5%",7.0,4.3,65000,2,Да,1400,4.0,4600,70,198,Да,14200,"советский модернизм","кирпич, панели","серый, белый, красный",190,Да,10,Да,1.0,1.0,2526,17.5,76.2,620000,3.1,287000,103.5,73.5,275.2,42,35.5,495000
BASH_002,Индустриальный парк "Салават",Республика Башкортостан,53.3812,55.9212,"ПАО 'ММК' – 165 км; ПАО 'Северсталь' – 520 км","ООО 'СалаватППУ' – 15 км","пониженная ставка налога на прибыль 15,5%",8.5,3.8,64000,3,Да,1850,2.3,3900,72,208,Да,14800,"советский ампир","кирпич, бетон","серый, красный, белый",125,Да,5,Да,0.95,1.0,4064,28.8,62.5,480000,4.2,295000,101.2,78.1,210.8,52,34.5,410000
KRD_001,ОЭЗ "Краснодар" (индустриальный парк),Краснодарский край,45.0523,38.9523,"ПАО 'Северсталь' – 620 км; ПАО 'НЛМК' – 750 км","ООО 'КубаньППУ' – 40 км","освобождение от налога на имущество на 8 лет",10.0,4.6,68000,2,Да,2300,2.5,3750,76,215,Да,19500,"современный южный","кирпич, стекло","белый, бежевый, синий",110,Да,6,Да,1.1,1.0,5790,76.8,85.2,610000,3.2,835000,104.7,79.5,285.5,92,34.6,590000
ROS_001,ОЭЗ "Ростов" (Азов),Ростовская область,47.1223,39.4223,"ПАО 'Северсталь' – 520 км; ПАО 'НЛМК' – 650 км","ООО 'РостовППУ' – 50 км","пониженная ставка налога на прибыль 15,5%",9.0,4.1,67000,2,Да,1950,2.8,3850,73,210,Да,17200,"промышленный","металл, кирпич","серый, красный, белый",140,Да,7,Да,1.05,1.0,4210,41.7,68.2,510000,3.5,395000,102.5,76.3,295.5,65,34.5,480000
VOR_001,Индустриальный парк "Масловский",Воронежская область,51.6523,39.2523,"ПАО 'НЛМК' – 260 км; ПАО 'Северсталь' – 450 км","ООО 'ВоронежППУ' – 35 км","пониженный налог на прибыль 15,5%",8.5,4.2,64000,2,Да,1750,3.2,3950,72,205,Да,15800,"современный","бетон, металл, кирпич","серый, белый, зелёный",155,Да,8,Да,1.0,1.0,2305,44.1,67.5,520000,3.2,245000,103.2,77.1,288.2,45,34.9,460000
NIZ_001,ОЭЗ "Саров",Нижегородская область,54.9323,43.3223,"ПАО 'Северсталь' – 520 км; ПАО 'НЛМК' – 360 км","ООО 'НижегородППУ' – 45 км","освобождение от налога на имущество на 8 лет",10.0,4.0,72000,1,Да,1600,3.0,4100,78,225,Да,18500,"научно-промышленный","кирпич, бетон","серый, белый, синий",180,Да,9,Да,1.0,1.0,3184,41.7,80.5,580000,2.9,298000,103.8,78.2,305.5,58,35.1,520000
SAM_001,ОЭЗ "Тольятти",Самарская область,53.5223,49.4223,"ПАО 'Северсталь' – 460 км; ПАО 'НЛМК' – 340 км","ООО 'ТольяттиППУ' – 30 км","освобождение от налога на имущество на 10 лет; пониженный налог на прибыль 13,5%",9.5,3.9,69000,2,Да,2200,2.2,3800,75,218,Да,16800,"автомобильный промышленный","металл, бетон","стальной, серый, красный",95,Да,5,Да,1.0,1.0,3154,59.1,80.6,620000,3.0,335000,104.5,76.9,295.1,55,34.5,510000
ULY_001,Портовая ОЭЗ "Ульяновск-Восточный",Ульяновская область,54.3223,48.3823,"ПАО 'Северсталь' – 540 км; ПАО 'НЛМК' – 420 км","ООО 'УльяновскППУ' – 25 км","освобождение от налога на имущество на 8 лет; пониженный налог на прибыль 15%",10.0,3.8,65000,2,Да,2000,2.5,3700,74,212,Да,16200,"логистическо-промышленный","металл, кирпич","серый, синий, белый",85,Да,4,Да,1.0,1.0,1216,32.7,74.8,510000,3.4,142000,102.4,75.5,278.2,26,34.9,440000
LEN_001,Промзона "Уткина Заводь",Ленинградская область,59.9323,30.4223,"ПАО 'Северсталь' – 440 км; ПАО 'НЛМК' – 580 км","ООО 'СПбППУ' – 35 км","пониженная ставка налога на прибыль 15,5%",8.0,4.2,82000,1,Да,1500,2.8,4300,82,248,Да,27000,"северный модерн","гранит, стекло","серый, белый, синий",20,Да,3,Да,1.35,1.0,1851,20.2,68.7,790000,2.8,285000,105.2,79.5,205.5,48,34.2,680000
KGD_001,Индустриальный парк "Храброво",Калининградская область,54.8912,20.5712,"ПАО 'Северсталь' – 780 км; импорт из ЕС – 120 км","ООО 'КалининградППУ' – 15 км","ОЭЗ: освобождение от таможенных пошлин, налог на имущество 0% на 6 лет",10.0,4.5,71000,2,Да,1200,3.2,4600,74,210,Да,21000,"европейский","кирпич, панели","красный, серый, белый",50,Да,5,Да,1.15,1.0,1024,67.7,77.2,680000,3.4,158000,104.8,78.1,298.5,26,34.8,590000
VGG_001,ОЭЗ "Волгоград" (Промзона Тракторного),Волгоградская область,48.7223,44.5223,"ПАО 'Северсталь' – 510 км; ПАО 'НЛМК' – 380 км","ООО 'ВолгоградППУ' – 40 км","пониженный налог на прибыль 15%",9.0,4.0,62000,3,Да,1800,2.5,4000,71,205,Да,14500,"сталинский ампир","кирпич, бетон","серый, красный, охристый",135,Да,7,Да,0.95,1.0,2505,22.3,76.8,490000,4.1,198000,102.1,73.5,245.5,46,33.9,440000
YAR_001,Индустриальный парк "Новоселки",Ярославская область,57.5823,39.8523,"ПАО 'Северсталь' – 490 км; ПАО 'НЛМК' – 360 км","ООО 'ЯрославльППУ' – 25 км","пониженная ставка налога на прибыль 15,5%",8.5,4.1,66000,2,Да,1700,2.6,4100,76,218,Да,16500,"древнерусский","кирпич, белый камень","белый, золотой, зелёный",160,Да,6,Да,1.0,1.0,1243,33.8,82.1,550000,3.2,152000,103.3,75.8,278.2,30,34.5,480000
VLA_001,Технопарк "Доброград-30",Владимирская область,56.4123,41.3323,"ПАО 'Северсталь' – 470 км; ПАО 'НЛМК' – 340 км","ООО 'ВладимирППУ' – 20 км","пониженный налог на прибыль 15,5%",9.0,4.0,64000,2,Да,1600,3.0,4200,75,215,Да,16000,"русский классицизм","кирпич, дерево","красный, белый, золотой",145,Да,5,Да,1.0,1.0,1344,39.5,75.6,520000,3.5,128000,103.6,75.2,280.1,28,34.6,450000
TUL_001,ОЭЗ "Узловая",Тульская область,53.9823,38.1723,"ПАО 'НЛМК' – 230 км; ПАО 'Северсталь' – 380 км","ООО 'ТулаППУ' – 15 км","освобождение от налога на имущество на 10 лет; пониженный налог на прибыль 13,5%",11.0,3.7,67000,2,Да,2200,1.8,3700,78,228,Да,17500,"советский индустриальный","металл, кирпич","серый, синий, красный",130,Да,4,Да,1.0,1.0,1480,58.5,72.3,560000,3.1,178000,104.2,75.9,289.2,34,34.8,490000
IRK_001,ОЭЗ "Иркутск" (промплощадка Ангарск),Иркутская область,52.5523,103.9223,"ПАО 'Северсталь' – 750 км; ПАО 'НЛМК' – 900 км","ООО 'ИркутскППУ' – 30 км","освобождение от налога на имущество на 8 лет",10.0,3.2,78000,1,Да,2000,2.2,3900,77,225,Да,19500,"сибирский","дерево, бетон","коричневый, серый, белый",100,Да,8,Да,0.85,1.0,2370,3.1,78.5,680000,3.5,278000,105.1,74.5,135.5,42,33.5,530000
KHV_001,ТОР "Хабаровск",Хабаровский край,48.4823,135.0823,"ПАО 'Северсталь' – 950 км; импорт из Китая – 70 км","ООО 'ХабаровскППУ' – 25 км","ТОР: нулевые налоги на прибыль и имущество первые 5 лет, страховые взносы 7,6%",12.0,3.8,82000,1,Да,1900,2.5,4100,76,220,Да,25000,"дальневосточный","металл, композит","синий, белый, стальной",70,Да,6,Да,0.9,1.0,1318,1.7,83.2,740000,3.2,195000,104.2,73.5,115.5,28,34.2,610000
PRM_001,ТОР "Надеждинская",Приморский край,43.3223,131.9523,"ПАО 'Северсталь' – 980 км; импорт из Китая – 50 км","ООО 'ПриморьеППУ' – 30 км","ТОР: нулевые налоги на прибыль и имущество первые 5 лет",12.0,3.9,79000,1,Да,1800,2.7,4200,75,218,Да,24000,"современный","стекло, металл","серебристый, синий, белый",65,Да,5,Да,0.9,1.0,1898,12.5,76.8,650000,3.8,215000,104.5,72.8,145.8,38,34.1,590000
STA_001,Индустриальный парк "Ставрополь-Северный",Ставропольский край,45.0523,41.9823,"ПАО 'Северсталь' – 610 км; ПАО 'НЛМК' – 740 км","ООО 'СтавропольППУ' – 35 км","пониженная ставка налога на прибыль 15,5%",8.0,4.4,59000,2,Да,1600,3.1,4000,73,210,Да,15000,"кавказский","камень, кирпич","бежевый, красный, серый",110,Да,7,Да,1.0,1.0,2803,41.2,57.8,430000,3.6,195000,103.5,76.5,285.2,52,34.9,400000
CRM_001,Индустриальный парк "Феодосия",Республика Крым,45.0323,35.3823,"ПАО 'Северсталь' – 820 км; импорт через порт – 10 км","ООО 'КрымППУ' – 20 км","свободная экономическая зона: пониженные налоги",10.0,4.7,61000,2,Да,1300,3.5,4500,72,205,Да,17000,"средиземноморский","ракушечник, кирпич","белый, охра, синий",90,Да,8,Да,1.05,1.0,1912,73.2,51.1,340000,4.7,132000,102.8,71.5,265.2,42,34.2,380000
KEM_001,ТОР "Юрга",Кемеровская область,55.7223,84.8823,"ПАО 'Северсталь' – 560 км; ПАО 'НЛМК' – 700 км","ООО 'КузбассППУ' – 45 км","ТОР: пониженные страховые взносы 7,6%",11.0,2.8,69000,4,Да,2100,2.0,3800,74,212,Да,16500,"индустриальный","металл, бетон","стальной, серый, красный",195,Да,4,Да,0.9,1.0,2622,27.4,86.5,560000,4.5,256000,102.2,72.5,235.2,48,33.8,420000
OMS_001,Индустриальный парк "Авангард",Омская область,54.9723,73.3823,"ПАО 'Северсталь' – 690 км; ПАО 'НЛМК' – 830 км","ООО 'ОмскППУ' – 25 км","пониженная ставка налога на прибыль 15,5%",8.0,3.5,67000,2,Да,1700,2.9,4000,73,208,Да,16000,"сибирский классицизм","кирпич, бетон","серый, белый, терракотовый",140,Да,6,Да,0.85,1.0,1845,13.2,74.3,550000,3.7,192000,103.1,73.2,235.2,38,34.1,490000
NIZ_002,Индустриальный парк "Технопарк Реал-Инвест",Нижегородская область,56.2273,43.1632,"ПАО 'Северсталь' – 470 км; ПАО 'НЛМК' – 420 км","ООО 'НижегородППУ' – 35 км","резидент Минпромторга РФ: субсидирование инфраструктуры, льготные финансовые инструменты",8.0,4.0,65000,2,Да,1800,2.5,4000,74,218,Да,16500,"современный промышленный","металл, бетон","серый, синий, белый",160,Да,5,Да,1.0,1.0,3184,41.7,80.5,580000,2.9,298000,103.8,78.2,305.5,58,35.1,520000
IRK_002,Индустриальный технопарк "Усолье-Промтех",Иркутская область,52.7567,103.6445,"ПАО 'Северсталь' – 780 км; ПАО 'НЛМК' – 920 км","ООО 'ИркутскППУ' – 40 км","резидент Минпромторга РФ: пониженная ставка по УСН 1% и 5%, налог на имущество 0%",8.5,3.3,72000,2,Да,1500,2.0,4200,73,210,Да,18000,"сибирский индустриальный","металл, бетон","серый, синий, белый",95,Да,3,Да,0.85,1.0,2370,3.1,78.5,680000,3.5,278000,105.1,74.5,135.5,42,33.5,530000
KEM_002,ТОР "Юрга" (резидент),Кемеровская область,55.7223,84.8823,"ПАО 'Северсталь' – 560 км; ПАО 'НЛМК' – 700 км","ООО 'КузбассППУ' – 45 км","ТОР: 0% налог на прибыль (федеральный) первые 5 лет; 5% налог на прибыль (региональный) первые 5 лет; 0% налог на имущество; 0% земельный налог; страховые взносы 7,6%",11.0,2.8,69000,4,Да,2100,2.0,3800,74,212,Да,16500,"индустриальный","металл, бетон","стальной, серый, красный",195,Да,4,Да,0.9,1.0,2622,27.4,86.5,560000,4.5,256000,102.2,72.5,235.2,48,33.8,420000
TUL_002,ОЭЗ "Узловая" (Тульская область),Тульская область,53.9823,38.1723,"ПАО 'НЛМК' – 230 км; ПАО 'Северсталь' – 380 км","ООО 'ТулаППУ' – 15 км","ОЭЗ: освобождение от налога на имущество на 10 лет; пониженный налог на прибыль 13,5%",11.0,3.7,67000,2,Да,2500,1.8,3700,78,228,Да,17500,"советский индустриальный","металл, кирпич","серый, синий, красный",130,Да,4,Да,1.0,1.0,1480,58.5,72.3,560000,3.1,178000,104.2,75.9,289.2,34,34.8,490000
BRY_001,Индустриальный парк "Брянский",Брянская область,53.2425,34.3667,"ПАО 'Северсталь' – 380 км; ПАО 'НЛМК' – 450 км","ООО 'БрянскППУ' – 30 км","резидент Минпромторга РФ: налоговые льготы для управляющих компаний и резидентов",8.0,4.1,58000,2,Да,1600,3.0,4100,72,205,Да,14500,"современный","металл, бетон, кирпич","серый, белый, синий",150,Да,6,Да,1.0,1.0,1155,31.2,68.5,470000,3.3,112000,103.0,74.1,275.5,24,35.0,410000
VOR_002,Индустриальный парк "Воронежский",Воронежская область,51.6667,39.2000,"ПАО 'НЛМК' – 260 км; ПАО 'Северсталь' – 450 км","ООО 'ВоронежППУ' – 35 км","резидент Минпромторга РФ: пониженные налоговые ставки",8.5,4.2,64000,2,Да,1750,3.2,3950,72,205,Да,15800,"современный","бетон, металл, кирпич","серый, белый, зелёный",155,Да,8,Да,1.0,1.0,2305,44.1,67.5,520000,3.2,245000,103.2,77.1,288.2,45,34.9,460000
LIP_002,Индустриальный парк "Липецк-2",Липецкая область,52.6167,39.6000,"ПАО 'НЛМК' (Липецк) – 5 км; ПАО 'Северсталь' – 420 км","ООО 'ЛипецкППУ' – 20 км","региональный индустриальный парк: льготы для резидентов",9.0,3.8,67000,2,Да,2200,2.0,3700,76,225,Да,17800,"советский модернизм","кирпич, металл","серый, красный, белый",150,Да,5,Да,1.0,1.0,1136,46.9,65.3,510000,3.4,168000,102.9,74.5,344.5,26,36.1,460000
TVER_001,Индустриальный парк "Тверь",Тверская область,56.8583,35.9000,"ПАО 'Северсталь' – 350 км; ПАО 'НЛМК' – 480 км","ООО 'ТверьППУ' – 25 км","резидент Минпромторга РФ: субсидии на инфраструктуру",8.0,4.0,62000,2,Да,1700,2.8,4200,73,210,Да,16000,"исторический","кирпич, дерево","белый, серый, красный",140,Да,6,Да,1.0,1.0,1256,28.5,75.2,530000,3.3,142000,103.5,75.5,268.5,28,34.5,450000
VLD_002,Индустриальный парк "Владимирский",Владимирская область,56.129,40.407,"ПАО 'Северсталь' – 470 км; ПАО 'НЛМК' – 340 км","ООО 'ВладимирППУ' – 20 км","региональный парк: пониженные налоговые ставки",8.5,4.0,63000,2,Да,1650,2.9,4150,74,212,Да,15800,"русский классицизм","кирпич, дерево","красный, белый, золотой",145,Да,5,Да,1.0,1.0,1344,39.5,75.6,520000,3.5,128000,103.6,75.2,280.1,28,34.6,450000
KAL_002,Индустриальный парк "Калуга-2",Калужская область,54.5333,36.2667,"ПАО 'Северсталь' – 450 км; ПАО 'НЛМК' – 320 км","ООО 'КалугаППУ' – 25 км","региональный парк: налоговые льготы для резидентов",9.0,4.1,70000,2,Да,2300,2.0,3600,77,235,Да,20500,"современный","стекло, металл, панели","белый, серый, синий",125,Да,4,Да,1.1,1.0,1004,28.7,76.1,590000,3.1,152000,105.6,78.2,319.2,24,36.0,490000
ROS_002,Индустриальный парк "Ростов-на-Дону",Ростовская область,47.2333,39.7000,"ПАО 'Северсталь' – 520 км; ПАО 'НЛМК' – 650 км","ООО 'РостовППУ' – 45 км","резидент Минпромторга РФ: льготы для резидентов",8.5,4.1,66000,2,Да,1900,2.5,3900,72,208,Да,16800,"промышленный","металл, кирпич","серый, красный, белый",135,Да,7,Да,1.05,1.0,4210,41.7,68.2,510000,3.5,395000,102.5,76.3,295.5,65,34.5,480000
SAR_002,Индустриальный парк "Саратовский",Саратовская область,51.5333,46.0000,"ПАО 'Северсталь' – 500 км; ПАО 'НЛМК' – 550 км","ООО 'СаратовППУ' – 35 км","региональный парк: пониженные налоговые ставки",7.5,3.9,60000,3,Да,1600,3.0,4000,71,200,Да,15000,"советский","кирпич, бетон","серый, белый, красный",160,Да,6,Да,1.0,1.0,2428,25.5,75.2,490000,3.8,185000,102.5,74.2,245.2,42,34.0,430000
AST_001,Промышленный технопарк "Акма",Астраханская область,46.349,48.041,"ПАО 'Северсталь' – 780 км; ПАО 'НЛМК' – 920 км","ООО 'АстраханьППУ' – 30 км","первый промышленный технопарк в Астраханской области, внесён в реестр Минпромторга РФ",8.0,4.0,58000,2,Да,1200,2.5,4000,71,208,Да,14500,"современный","металл, бетон","серый, белый, синий",110,Да,5,Да,1.0,1.0,975,22.5,65.2,480000,4.0,125000,103.0,73.5,195.5,20,34.5,390000
RO_002,Промышленный технопарк "Азовский",Ростовская область,47.107,39.424,"ПАО 'Северсталь' – 520 км; ПАО 'НЛМК' – 650 км","ООО 'РостовППУ' – 50 км","первый промышленный технопарк в Ростовской области, внесён в реестр Минпромторга РФ; инвестиции 940 млн руб.",9.0,4.1,66000,2,Да,1200,2.5,3900,72,208,Да,15000,"современный","металл, бетон","серый, белый, синий",80,Да,4,Да,1.05,1.0,4210,41.7,68.2,510000,3.5,395000,102.5,76.3,295.5,65,34.5,480000
ORE_002,Промышленный технопарк "Масштаб",Оренбургская область,51.053,61.622,"ПАО 'Северсталь' – 600 км; ПАО 'НЛМК' – 720 км","ООО 'ОренбургППУ' – 50 км","первый в РФ промышленный технопарк металлургического направления, создан на базе бывшего Буруктальского никелевого завода",8.0,4.0,62000,2,Да,1500,3.0,4200,73,210,Да,16000,"индустриальный","металл, бетон","стальной, серый, красный",150,Да,6,Да,1.0,1.0,1867,15.2,63.5,590000,3.9,225000,104.0,72.5,235.2,38,34.2,460000
AD_001,Агропромышленный технопарк "Гиагинский",Республика Адыгея,44.8686,40.0669,"ПАО 'Северсталь' – 650 км; ПАО 'НЛМК' – 780 км","ООО 'АдыгеяППУ' – 40 км","первый промышленный технопарк в Республике Адыгея; специализация: селекция, семеноводство, агробиотехнологии",8.5,4.1,55000,1,Да,1600,3.0,4100,72,205,Да,14500,"современный","металл, стекло, бетон","белый, серый, зелёный",90,Да,5,Да,1.0,1.0,463,33.5,55.2,350000,4.5,98000,102.0,70.5,245.2,18,34.8,370000
KRD_002,Индустриальный парк "Краснодар",Краснодарский край,45.039,38.977,"ПАО 'Северсталь' – 620 км; ПАО 'НЛМК' – 750 км","ООО 'КубаньППУ' – 40 км","резидент Минпромторга РФ; доступ к государственным мерам поддержки, включая субсидирование инфраструктуры",10.0,4.5,68000,2,Да,5000,2.0,3750,76,215,Да,19500,"современный","металл, бетон, стекло","серый, белый, синий",110,Да,5,Да,1.1,1.0,5790,76.8,85.2,610000,3.2,835000,104.7,79.5,285.5,92,34.6,590000
KRD_003,Индустриальный парк "Компрессорный",Краснодарский край,45.061,38.997,"ПАО 'Северсталь' – 620 км; ПАО 'НЛМК' – 750 км","ООО 'КубаньППУ' – 40 км","резидент Минпромторга РФ; создан на базе бывшего завода «Борец»",8.5,4.5,68000,2,Да,8000,1.5,3750,76,215,Да,19500,"современный","металл, бетон","серый, синий, белый",110,Да,3,Да,1.1,1.0,5790,76.8,85.2,610000,3.2,835000,104.7,79.5,285.5,92,34.6,590000
KRD_004,Индустриальный парк "ВБ Кубань",Краснодарский край,45.063,39.085,"ПАО 'Северсталь' – 620 км; ПАО 'НЛМК' – 750 км","ООО 'КубаньППУ' – 40 км","резидент Минпромторга РФ; частный парк с полным пакетом мер поддержки резидентов",10.0,4.5,68000,2,Да,3000,2.5,3750,76,215,Да,19500,"современный","металл, бетон","серый, белый, синий",110,Да,4,Да,1.1,1.0,5790,76.8,85.2,610000,3.2,835000,104.7,79.5,285.5,92,34.6,590000
KRD_005,Индустриальный парк "Копанской",Краснодарский край,45.058,39.002,"ПАО 'Северсталь' – 620 км; ПАО 'НЛМК' – 750 км","ООО 'КубаньППУ' – 40 км","резидент Минпромторга РФ; многоотраслевой парк, включён в реестр индустриальных парков",9.5,4.5,68000,2,Да,4000,2.0,3750,76,215,Да,19500,"современный","металл, бетон","серый, белый, синий",110,Да,4,Да,1.1,1.0,5790,76.8,85.2,610000,3.2,835000,104.7,79.5,285.5,92,34.6,590000
KRD_006,Индустриальный парк "Достояние",Краснодарский край,45.433,40.573,"ПАО 'Северсталь' – 620 км; ПАО 'НЛМК' – 750 км","ООО 'КубаньППУ' – 40 км","резидент Минпромторга РФ",9.0,4.5,68000,2,Да,2000,3.0,3750,76,215,Да,19500,"современный","металл, бетон","серый, белый, синий",110,Да,6,Да,1.1,1.0,5790,76.8,85.2,610000,3.2,835000,104.7,79.5,285.5,92,34.6,590000
KRD_007,Промышленный технопарк "АЭТЗ",Краснодарский край,44.995,41.117,"ПАО 'Северсталь' – 620 км; ПАО 'НЛМК' – 750 км","ООО 'КубаньППУ' – 40 км","резидент Минпромторга РФ; первый промышленный технопарк в Краснодарском крае",10.0,4.5,68000,2,Да,1500,2.0,3750,76,215,Да,19500,"современный","металл, бетон","серый, белый, синий",110,Да,3,Да,1.1,1.0,5790,76.8,85.2,610000,3.2,835000,104.7,79.5,285.5,92,34.6,590000
KRD_008,Индустриальный парк "Кубань",Краснодарский край,45.215,39.689,"ПАО 'Северсталь' – 620 км; ПАО 'НЛМК' – 750 км","ООО 'КубаньППУ' – 40 км","резидент Минпромторга РФ; комплексное размещение промышленных предприятий",8.5,4.5,68000,2,Да,3500,2.2,3750,76,215,Да,19500,"современный","металл, бетон","серый, белый, синий",110,Да,5,Да,1.1,1.0,5790,76.8,85.2,610000,3.2,835000,104.7,79.5,285.5,92,34.6,590000
KRD_009,Индустриальный парк "Регион 23",Краснодарский край,44.407,40.795,"ПАО 'Северсталь' – 620 км; ПАО 'НЛМК' – 750 км","ООО 'КубаньППУ' – 40 км","резидент Минпромторга РФ",8.0,4.5,68000,2,Да,1800,2.5,3750,76,215,Да,19500,"современный","металл, бетон","серый, белый, синий",110,Да,6,Да,1.1,1.0,5790,76.8,85.2,610000,3.2,835000,104.7,79.5,285.5,92,34.6,590000
YUG_001,Промышленный технопарк "Импульс",Ханты-Мансийский АО - Югра,61.014,69.092,"ПАО 'Северсталь' – 1200 км; ПАО 'НЛМК' – 1400 км","ООО 'ЮграППУ' – 300 км","включен в реестр Минпромторга России",8.5,5.0,82000,1,Да,500,3.0,4500,74,215,Да,22000,"современный","металл, бетон","серый, белый, синий",180,Да,4,Да,1.0,1.0,1692,3.1,92.5,1250000,2.8,412000,105.0,88.0,85.7,49,32.1,710000
YUG_002,Индустриальный парк "Синергия",Ханты-Мансийский АО - Югра,55.758,52.058,"ПАО 'Северсталь' – 1200 км; ПАО 'НЛМК' – 1400 км","ООО 'ЮграППУ' – 300 км","включен в реестр Минпромторга России",8.5,5.0,82000,1,Да,1500,2.5,4500,74,215,Да,22000,"современный","металл, бетон","серый, белый, синий",180,Да,4,Да,1.0,1.0,1692,3.1,92.5,1250000,2.8,412000,105.0,88.0,85.7,49,32.1,710000
YUG_003,Индустриальный парк "Югра",Ханты-Мансийский АО - Югра,61.251,73.489,"ПАО 'Северсталь' – 1200 км; ПАО 'НЛМК' – 1400 км","ООО 'ЮграППУ' – 300 км","включен в реестр Минпромторга России",8.5,5.0,82000,1,Да,1000,2.8,4500,74,215,Да,22000,"современный","металл, бетон","серый, белый, синий",180,Да,4,Да,1.0,1.0,1692,3.1,92.5,1250000,2.8,412000,105.0,88.0,85.7,49,32.1,710000
YUG_004,Индустриальный парк "Кондинский",Ханты-Мансийский АО - Югра,59.775,64.883,"ПАО 'Северсталь' – 1200 км; ПАО 'НЛМК' – 1400 км","ООО 'ЮграППУ' – 300 км","включен в реестр Минпромторга России; специализация — деревообработка",8.0,5.0,75000,1,Да,800,3.5,4500,70,205,Да,18000,"современный","металл, дерево","серый, коричневый, белый",200,Да,6,Да,1.0,1.0,1692,3.1,92.5,1250000,2.8,412000,105.0,88.0,85.7,49,32.1,710000
YUG_005,Индустриальный парк "Нефтеюганский",Ханты-Мансийский АО - Югра,61.095,72.604,"ПАО 'Северсталь' – 1200 км; ПАО 'НЛМК' – 1400 км","ООО 'ЮграППУ' – 300 км","включен в реестр Минпромторга России",8.5,5.0,80000,1,Да,1200,2.2,4500,73,210,Да,20000,"современный","металл, бетон","серый, белый, синий",180,Да,4,Да,1.0,1.0,1692,3.1,92.5,1250000,2.8,412000,105.0,88.0,85.7,49,32.1,710000
YUG_006,Индустриальный парк "ЯшелПаркСибирь",Ханты-Мансийский АО - Югра,60.939,76.570,"ПАО 'Северсталь' – 1200 км; ПАО 'НЛМК' – 1400 км","ООО 'ЮграППУ' – 300 км","включен в реестр Минпромторга России",8.5,5.0,85000,1,Да,900,3.0,4500,75,218,Да,23000,"современный","металл, бетон","серый, белый, синий",180,Да,4,Да,1.0,1.0,1692,3.1,92.5,1250000,2.8,412000,105.0,88.0,85.7,49,32.1,710000
INP_001,Индустриальный парк "Клин",Московская область,56.3339,36.7341,"ПАО 'Северсталь' – 280 км; ПАО 'НЛМК' – 370 км","ООО 'КлинППУ' – 35 км","аккредитация Минпромторга РФ: доступ к субсидированию инфраструктуры и льготным финансовым инструментам",8.5,4.2,75000,2,Да,1800,2.5,3900,78,230,Да,25000,"современный промышленный","металл, бетон","серый, синий, белый",65,Да,3,Да,1.35,1.0,8560,166.4,82.1,950000,2.1,2500000,107.1,82.2,410.2,132,32.5,720000
SAKH_001,Сахалинский нефтегазовый индустриальный парк,Сахалинская область,46.95,142.73,"ПАО 'Северсталь' – 3000 км (морем)","ООО 'СахалинППУ' – 100 км","аккредитация Минпромторга РФ: специализация на нефтегазовом машиностроении",10.0,5.2,95000,1,Да,800,3.0,4800,72,210,Да,35000,"современный","металл, композит","серый, синий, белый",45,Нет,5,Да,1.2,1.0,490,6.2,84.5,1200000,3.5,185000,104.5,75.0,115.5,18,34.0,680000
NVS_002,Промышленный технопарк "Экран",Новосибирская область,54.95,82.95,"ПАО 'Северсталь' – 780 км; ПАО 'НЛМК' – 920 км","ООО 'Сибирский ППУ' – 45 км","аккредитация Минпромторга РФ; создание новых высокотехнологичных производств",9.0,3.9,75000,2,Да,1500,2.5,4200,79,230,Да,21000,"современный научный","стекло, бетон","белый, серый, голубой",85,Да,6,Да,0.9,1.0,2793,15.5,79.2,630000,3.8,385000,104.3,74.8,215.5,58,33.5,510000
KGN_001,Индустриальный парк РИД Катайск,Курганская область,56.29,62.57,"ПАО 'Северсталь' – 400 км; ПАО 'НЛМК' – 530 км","ООО 'КурганППУ' – 40 км","аккредитация Минпромторга РФ: освобождение от налога на имущество, пониженный налог на прибыль",8.5,3.5,55000,3,Да,1200,3.0,4300,70,200,Да,14000,"советский индустриальный","металл, бетон","серый, красный, белый",170,Да,7,Да,0.9,1.0,827,11.8,62.5,470000,4.8,98000,102.1,71.5,185.5,22,34.5,390000
KRD_010,Индустриальный парк "Апшеронск",Краснодарский край,44.46,39.73,"ПАО 'Северсталь' – 620 км; ПАО 'НЛМК' – 750 км","ООО 'КубаньППУ' – 40 км","включение в реестр Минпромторга РФ, государственные меры поддержки",9.0,4.5,65000,2,Да,1200,3.0,4000,73,210,Да,17000,"современный южный","кирпич, стекло","белый, бежевый, синий",120,Да,6,Да,1.1,1.0,5790,76.8,85.2,610000,3.2,835000,104.7,79.5,285.5,92,34.6,590000
KRD_011,Индустриальный парк "Тимашевск",Краснодарский край,45.62,38.94,"ПАО 'Северсталь' – 620 км; ПАО 'НЛМК' – 750 км","ООО 'КубаньППУ' – 40 км","включение в реестр Минпромторга РФ, государственные меры поддержки",9.0,4.5,63000,2,Да,1100,3.2,4000,73,210,Да,16500,"современный южный","кирпич, стекло","белый, бежевый, синий",115,Да,6,Да,1.1,1.0,5790,76.8,85.2,610000,3.2,835000,104.7,79.5,285.5,92,34.6,590000
KRD_012,Технопарк радиоэлектронной промышленности,Краснодарский край,45.04,38.98,"ПАО 'Северсталь' – 620 км; ПАО 'НЛМК' – 750 км","ООО 'КубаньППУ' – 40 км","формируемый технопарк в Краснодаре, специализация — радиоэлектронная промышленность",9.5,4.5,68000,2,Да,1500,2.5,3750,76,215,Да,19500,"современный","металл, бетон, стекло","серый, белый, синий",110,Да,5,Да,1.1,1.0,5790,76.8,85.2,610000,3.2,835000,104.7,79.5,285.5,92,34.6,590000
KRD_013,Экотехнопарк (Сочи),Краснодарский край,43.58,39.73,"ПАО 'Северсталь' – 620 км; ПАО 'НЛМК' – 750 км","ООО 'КубаньППУ' – 40 км","формируемый технопарк в Сочи, эко-технологии",9.0,4.5,65000,1,Да,800,3.5,4000,74,215,Да,28000,"современный","стекло, бетон","белый, зеленый, синий",140,Да,7,Да,1.1,1.0,5790,76.8,85.2,610000,3.2,835000,104.7,79.5,285.5,92,34.6,590000
KRD_014,Технопарк "Н-Порт" (Новороссийск),Краснодарский край,44.72,37.77,"ПАО 'Северсталь' – 620 км; импорт – 50 км","ООО 'КубаньППУ' – 40 км","формируемый технопарк в Новороссийске, портовая логистика",9.0,4.5,67000,2,Да,1000,3.0,4000,75,215,Да,22000,"современный","металл, бетон","серый, синий, белый",30,Да,4,Да,1.1,1.0,5790,76.8,85.2,610000,3.2,835000,104.7,79.5,285.5,92,34.6,590000
KRD_015,Индустриальный парк "Мостовской",Краснодарский край,44.41,40.79,"ПАО 'Северсталь' – 620 км; ПАО 'НЛМК' – 750 км","ООО 'КубаньППУ' – 40 км","аккредитация Минпромторга РФ: производство стройматериалов",8.5,4.5,60000,2,Да,1000,3.5,4200,72,205,Да,15500,"современный","кирпич, бетон","серый, белый, синий",130,Да,7,Да,1.1,1.0,5790,76.8,85.2,610000,3.2,835000,104.7,79.5,285.5,92,34.6,590000
KRD_016,Индустриальный парк "Усть-Лабинский",Краснодарский край,45.21,39.69,"ПАО 'Северсталь' – 620 км; ПАО 'НЛМК' – 750 км","ООО 'КубаньППУ' – 40 км","аккредитация Минпромторга РФ: агропромышленный кластер",8.5,4.5,61000,2,Да,1100,3.2,4100,73,208,Да,16000,"современный","металл, бетон","серый, белый, синий",120,Да,6,Да,1.1,1.0,5790,76.8,85.2,610000,3.2,835000,104.7,79.5,285.5,92,34.6,590000
KRD_017,Индустриальный парк "Кавказский",Краснодарский край,45.43,40.57,"ПАО 'Северсталь' – 620 км; ПАО 'НЛМК' – 750 км","ООО 'КубаньППУ' – 40 км","аккредитация Минпромторга РФ",9.0,4.5,63000,2,Да,1300,2.8,4000,74,210,Да,16500,"современный","металл, бетон","серый, белый, синий",110,Да,5,Да,1.1,1.0,5790,76.8,85.2,610000,3.2,835000,104.7,79.5,285.5,92,34.6,590000
KRD_018,Индустриальный парк "Армавир",Краснодарский край,45.00,41.12,"ПАО 'Северсталь' – 620 км; ПАО 'НЛМК' – 750 км","ООО 'КубаньППУ' – 40 км","аккредитация Минпромторга РФ",8.5,4.5,62000,2,Да,1200,3.0,4100,73,208,Да,15800,"современный","металл, бетон","серый, белый, синий",130,Да,6,Да,1.1,1.0,5790,76.8,85.2,610000,3.2,835000,104.7,79.5,285.5,92,34.6,590000
TAT_003,Индустриальный парк "Хайер Рус",Республика Татарстан,55.80,49.10,"ПАО 'Северсталь' – 480 км; ПАО 'НЛМК' – 620 км","ООО 'ППУ-Челны' – 60 км","принадлежит компании «Хайер», специализация — производство бытовой техники",9.5,3.5,70000,2,Да,1500,2.0,3600,78,240,Да,21000,"современный промышленный","металл, пластик","белый, синий, серебристый",85,Да,3,Да,1.05,1.0,3893,57.4,76.8,890000,2.8,712000,106.2,79.3,335.2,68,32.8,580000
TAT_004,Технопарк в сфере высоких технологий "Иннопарк",Республика Татарстан,55.80,49.20,"ПАО 'Северсталь' – 480 км; ПАО 'НЛМК' – 620 км","ООО 'ППУ-Челны' – 60 км","аккредитация Минпромторга РФ: ИТ-резиденты, льготные ставки",9.5,3.5,75000,2,Да,1200,2.5,3500,80,250,Да,23000,"современный","стекло, бетон","белый, синий, серебристый",85,Да,3,Да,1.05,1.0,3893,57.4,76.8,890000,2.8,712000,106.2,79.3,335.2,68,32.8,580000
MUR_001,Индустриальный парк "Кола",Мурманская область,68.88,33.03,"ПАО 'Северсталь' – 800 км","ООО 'МурманскППУ' – 60 км","налоговые льготы для резидентов Арктической зоны",10.0,5.0,85000,1,Да,800,4.0,5000,72,205,Да,30000,"арктический","металл, стекло","серый, синий, белый",120,Да,8,Да,1.1,1.0,741,5.2,92.8,850000,4.2,125000,103.5,75.0,85.5,28,34.2,620000
LEN_002,Индустриальный парк "Федоровское",Ленинградская область,59.66,30.53,"ПАО 'Северсталь' – 440 км; ПАО 'НЛМК' – 580 км","ООО 'СПбППУ' – 40 км","резидент Минпромторга РФ, меры господдержки",8.5,4.2,78000,2,Да,1500,3.0,4300,80,245,Да,25000,"современный","кирпич, стекло","серый, белый, синий",35,Да,3,Да,1.35,1.0,1851,20.2,68.7,790000,2.8,285000,105.2,79.5,205.5,48,34.2,680000
NVS_003,Технопарк "Академпарк",Новосибирская область,54.85,83.10,"ПАО 'Северсталь' – 780 км; ПАО 'НЛМК' – 920 км","ООО 'Сибирский ППУ' – 45 км","аккредитация Минпромторга РФ, ИТ и биотехнологии",9.0,3.9,78000,1,Да,1700,2.8,4300,82,240,Да,23000,"современный научный","стекло, бетон","белый, серый, голубой",80,Да,7,Да,0.9,1.0,2793,15.5,79.2,630000,3.8,385000,104.3,74.8,215.5,58,33.5,510000
KEM_003,Промышленный технопарк "Кузбасс-Агро",Кемеровская область,54.97,73.38,"ПАО 'Северсталь' – 560 км; ПАО 'НЛМК' – 700 км","ООО 'КузбассППУ' – 45 км","аккредитация Минпромторга РФ, агропромышленная специализация",8.0,3.5,60000,3,Да,800,4.0,4200,72,205,Да,16000,"индустриальный","металл, бетон","стальной, серый, красный",180,Да,6,Да,0.9,1.0,2622,27.4,86.5,560000,4.5,256000,102.2,72.5,235.2,48,33.8,420000
TVER_002,Индустриальный парк "Заволжский",Тверская область,56.86,35.92,"ПАО 'Северсталь' – 350 км; ПАО 'НЛМК' – 480 км","ООО 'ТверьППУ' – 30 км","резидент Минпромторга РФ, налоговые льготы",8.0,4.0,58000,2,Да,1300,3.2,4300,73,210,Да,15500,"современный","металл, бетон","серый, белый, синий",150,Да,5,Да,1.0,1.0,1256,28.5,75.2,530000,3.3,142000,103.5,75.5,268.5,28,34.5,450000
VLD_003,Промышленный технопарк "Владимир",Владимирская область,56.13,40.41,"ПАО 'Северсталь' – 470 км; ПАО 'НЛМК' – 340 км","ООО 'ВладимирППУ' – 20 км","аккредитация Минпромторга РФ, субсидии на инфраструктуру",8.5,4.0,63000,2,Да,1650,2.9,4150,74,212,Да,15800,"русский классицизм","кирпич, дерево","красный, белый, золотой",145,Да,5,Да,1.0,1.0,1344,39.5,75.6,520000,3.5,128000,103.6,75.2,280.1,28,34.6,450000
MOS_002,Индустриальный парк "ES Group",Московская область,56.55,37.10,"ПАО 'Северсталь' – 280 км; ПАО 'НЛМК' – 370 км","ООО 'Московский ППУ' – 30 км","аккредитация Минпромторга РФ, частный парк",8.5,4.2,78000,2,Да,1600,2.8,4000,80,240,Да,26000,"современный","металл, бетон","серый, синий, белый",60,Да,4,Да,1.35,1.0,8560,166.4,82.1,950000,2.1,2500000,107.1,82.2,410.2,132,32.5,720000
MOS_003,Технопарк "Greenwood",Московская область,55.80,37.30,"ПАО 'Северсталь' – 280 км; ПАО 'НЛМК' – 370 км","ООО 'Московский ППУ' – 30 км","аккредитация Минпромторга РФ, ИТ и инновации",8.5,4.2,80000,2,Да,1500,3.0,4000,82,245,Да,28000,"современный","стекло, бетон","белый, синий, серый",50,Да,3,Да,1.35,1.0,8560,166.4,82.1,950000,2.1,2500000,107.1,82.2,410.2,132,32.5,720000
KRK_002,Индустриальный парк "Медногорск",Оренбургская область,51.40,57.60,"ПАО 'Северсталь' – 600 км; ПАО 'НЛМК' – 720 км","ООО 'ОренбургППУ' – 50 км","аккредитация Минпромторга РФ, металлургия",8.0,4.0,60000,3,Да,1200,3.5,4300,71,200,Да,14500,"индустриальный","металл, бетон","стальной, серый, красный",160,Да,6,Да,1.0,1.0,1867,15.2,63.5,590000,3.9,225000,104.0,72.5,235.2,38,34.2,460000
VOL_001,Индустриальный парк "Волжский",Волгоградская область,48.80,44.80,"ПАО 'Северсталь' – 510 км; ПАО 'НЛМК' – 380 км","ООО 'ВолгоградППУ' – 35 км","аккредитация Минпромторга РФ",8.5,4.0,63000,3,Да,1400,3.0,4200,73,208,Да,16000,"советский","кирпич, бетон","серый, красный, белый",140,Да,5,Да,0.95,1.0,2505,22.3,76.8,490000,4.1,198000,102.1,73.5,245.5,46,33.9,440000
KAL_003,Технополис "GS",Калужская область,54.72,36.98,"ПАО 'Северсталь' – 450 км; ПАО 'НЛМК' – 320 км","ООО 'КалугаППУ' – 30 км","резидент Минпромторга РФ; специализация — электроника, бытовая техника",10.0,4.2,72000,1,Да,2000,2.5,3600,79,240,Да,22000,"современный технопарк","стекло, металл, бетон","белый, синий, серый",120,Да,4,Да,1.1,1.0,1004,28.7,76.1,590000,3.1,152000,105.6,78.2,319.2,24,36.0,490000
IVA_001,Индустриальный парк "Родники",Ивановская область,57.10,41.25,"ПАО 'Северсталь' – 300 км; ПАО 'НЛМК' – 430 км","ООО 'ИвановоППУ' – 50 км","аккредитация Минпромторга РФ; лёгкая промышленность, текстиль",8.0,4.1,55000,2,Да,1200,3.0,4200,71,205,Да,14000,"советский индустриальный","кирпич, бетон","серый, красный, белый",150,Да,5,Да,1.0,1.0,1008,23.5,81.2,420000,4.2,98000,102.8,73.5,225.5,24,34.6,390000
ALT_001,ОЭЗ "Алтай" (Промышленно-производственная),Алтайский край,53.36,83.70,"ПАО 'Северсталь' – 850 км; ПАО 'НЛМК' – 1000 км","ООО 'АлтайППУ' – 60 км","ОЭЗ: освобождение от налога на имущество на 10 лет, пониженный налог на прибыль 13,5%",10.0,4.0,65000,2,Да,1500,2.5,4000,73,215,Да,17000,"современный","металл, бетон","серый, белый, синий",130,Да,5,Да,0.95,1.0,2325,13.8,57.6,490000,4.0,185000,103.2,72.5,195.5,38,34.2,430000
ZAB_001,Индустриальный парк "Забайкалье",Забайкальский край,52.04,113.50,"ПАО 'Северсталь' – 1200 км; импорт из Китая – 50 км","ООО 'ЗабайкальеППУ' – 80 км","резидент Минпромторга РФ; статус ТОР",9.0,4.5,70000,2,Да,1000,3.5,4500,72,208,Да,20000,"современный","металл, бетон","серый, белый, синий",60,Да,6,Да,0.9,1.0,1065,2.5,67.3,440000,6.1,128000,102.5,71.5,105.5,24,33.8,380000
MOR_001,Технопарк "Мордовия",Республика Мордовия,54.19,45.18,"ПАО 'Северсталь' – 400 км; ПАО 'НЛМК' – 530 км","ООО 'МордовияППУ' – 40 км","аккредитация Минпромторга РФ; особый акцент на инновации",8.5,3.8,60000,2,Да,1300,2.8,4200,73,210,Да,15000,"современный","стекло, бетон","белый, серый, синий",140,Да,5,Да,1.0,1.0,784,30.1,63.2,460000,3.8,112000,103.0,74.5,235.2,26,34.5,410000
KEM_004,ОЭЗ "Кузбасс",Кемеровская область,55.35,86.08,"ПАО 'Северсталь' – 560 км; ПАО 'НЛМК' – 700 км","ООО 'КузбассППУ' – 45 км","ОЭЗ: освобождение от налога на имущество на 10 лет, пониженный налог на прибыль 13,5%",11.0,2.8,69000,4,Да,2200,2.0,3800,74,212,Да,16500,"индустриальный","металл, бетон","стальной, серый, красный",195,Да,4,Да,0.9,1.0,2622,27.4,86.5,560000,4.5,256000,102.2,72.5,235.2,48,33.8,420000
UDM_001,Индустриальный парк "Удмуртский",Удмуртская Республика,56.85,53.20,"ПАО 'Северсталь' – 500 км; ПАО 'НЛМК' – 630 км","ООО 'УдмуртияППУ' – 50 км","аккредитация Минпромторга РФ; машиностроение, оборонка",8.5,3.9,65000,2,Да,1400,3.0,4300,73,210,Да,16000,"советский промышленный","металл, бетон","серый, красный, белый",150,Да,5,Да,1.0,1.0,1496,35.8,66.5,530000,3.5,178000,104.0,74.0,245.5,36,34.2,460000